City_ID,City,Cloudiness,Country,Date,Humidity,Lat,Max Temp,Wind Speed,lng
0,puerto escondido,5,MX,1542429600,69,15.86,77.0,8.05,-97.07
1,banamba,8,ML,1542433587,56,13.55,69.02,3.94,-7.45
2,qaanaaq,20,GL,1542433587,100,77.48,-10.14,5.39,-69.36
3,richards bay,80,ZA,1542433588,79,-28.77,76.49,13.22,32.06
4,punta arenas,75,CL,1542430800,65,-53.16,41.0,10.29,-70.91
5,mosquera,40,CO,1542430800,87,4.71,53.6,3.36,-74.23
6,hermanus,68,ZA,1542433589,80,-34.42,59.12,0.47,19.24
7,mataura,92,NZ,1542433589,100,-46.19,51.52,13.67,168.86
8,yellowknife,5,CA,1542430800,75,62.45,-14.81,5.82,-114.38
9,bayonet point,1,US,1542432900,93,28.33,59.0,10.2,-82.68
10,rikitea,88,PF,1542433590,96,-23.12,76.27,9.31,-134.97
11,fushe-kruje,75,AL,1542432000,87,41.48,44.6,4.38,19.72
12,bluff,56,AU,1542433591,26,-23.58,94.31,4.72,149.07
13,quatre cocos,40,MU,1542430800,61,-20.21,80.6,9.17,57.76
14,bambous virieux,40,MU,1542430800,61,-20.34,80.6,9.17,57.76
15,christchurch,12,NZ,1542432600,82,-43.53,59.0,9.17,172.64
16,airai,44,TL,1542433592,92,-8.93,76.9,1.59,125.41
17,cape town,20,ZA,1542430800,67,-33.93,62.6,9.17,18.42
18,byron bay,92,AU,1542430800,61,-28.65,78.8,12.75,153.62
19,guerrero negro,24,MX,1542433592,97,27.97,53.95,3.71,-114.04
20,jamestown,0,AU,1542433303,28,-33.21,74.83,9.64,138.6
21,moroni,0,US,1542433593,66,39.52,17.18,1.7,-111.59
22,cabo san lucas,90,MX,1542429600,72,22.89,68.0,3.36,-109.91
23,butaritari,92,KI,1542433594,100,3.07,84.95,15.46,172.79
24,ingham,0,AU,1542433594,84,-18.65,80.68,5.73,146.16
25,georgetown,20,GY,1542430800,100,6.8,75.2,2.24,-58.16
26,annau,90,TM,1542430800,57,37.89,50.0,4.7,58.52
27,castro,76,CL,1542433595,100,-42.48,44.32,3.94,-73.76
28,kaitangata,100,NZ,1542433596,99,-46.28,54.89,6.29,169.85
29,banjar,12,ID,1542433596,52,-7.37,90.13,5.84,108.54
30,albany,90,US,1542431520,67,42.65,39.92,6.93,-73.75
31,ahipara,88,NZ,1542433597,77,-35.17,62.81,3.71,173.16
32,chuy,0,UY,1542433597,90,-33.69,62.45,15.12,-53.46
33,kiama,90,AU,1542430800,59,-34.67,66.2,13.87,150.86
34,ushuaia,40,AR,1542430800,74,-54.81,37.4,14.99,-68.31
35,boffa,44,GN,1542433598,95,10.18,72.89,2.71,-14.04
36,kulhudhuffushi,24,MV,1542433598,100,6.62,79.82,11.43,73.07
37,taltal,24,CL,1542433599,97,-25.41,51.38,1.36,-70.49
38,hohhot,0,CN,1542430800,34,40.81,33.8,11.18,111.65
39,khatanga,64,RU,1542433599,75,71.98,8.05,18.48,102.47
40,longyearbyen,75,NO,1542430200,62,78.22,21.2,10.29,15.63
41,bredasdorp,68,ZA,1542430800,59,-34.53,64.4,6.93,20.04
42,haines junction,68,CA,1542433600,92,60.75,8.05,2.37,-137.51
43,nome,1,US,1542431700,89,30.04,48.92,3.71,-94.42
44,durango,1,US,1542430380,60,37.28,30.92,4.7,-107.88
45,barrow,80,AR,1542433601,64,-38.31,58.4,21.83,-60.23
46,hithadhoo,76,MV,1542433601,100,-0.6,83.06,11.65,73.08
47,buchanan,40,LR,1542430800,94,5.88,75.2,3.6,-10.05
48,pevek,0,RU,1542433603,100,69.7,-9.78,2.93,170.27
49,ous,76,RU,1542433603,89,60.91,29.24,3.94,61.52
50,saint-augustin,0,FR,1542432600,100,44.83,48.2,3.36,-0.61
51,victoria,75,BN,1542432600,79,5.28,87.8,3.36,115.24
52,rio grande,0,BR,1542433604,90,-32.03,68.66,22.73,-52.1
53,sioux lookout,90,CA,1542432240,78,50.1,8.6,8.05,-91.92
54,vardo,90,US,1542431700,67,39.62,42.8,8.05,-77.74
55,sitka,8,US,1542433605,82,37.17,36.22,6.62,-99.65
56,husavik,8,CA,1542433605,87,50.56,11.96,14.23,-96.99
57,tessalit,0,ML,1542433606,44,20.2,60.07,7.96,1.01
58,karachi,0,PK,1542430500,37,24.87,86.0,6.93,67.03
59,salalah,0,OM,1542430200,51,17.01,84.2,5.06,54.1
60,barcelos,0,PT,1542430800,76,41.53,57.2,8.05,-8.62
61,cherskiy,24,RU,1542433607,77,68.75,-17.65,4.38,161.3
62,lufilufi,75,WS,1542430800,83,-13.87,82.4,4.7,-171.6
63,medicine hat,20,CA,1542430800,84,50.04,1.4,3.36,-110.68
64,vestmannaeyjar,92,IS,1542433607,92,63.44,49.04,32.79,-20.27
65,flinders,90,AU,1542430800,59,-34.58,66.2,13.87,150.85
66,ponta do sol,92,BR,1542433608,99,-20.63,67.49,7.63,-46.0
67,lorengau,92,PG,1542433608,100,-2.02,82.07,6.17,147.27
68,nuuk,68,GL,1542430200,79,64.17,24.8,1.12,-51.74
69,east london,75,ZA,1542430800,77,-33.02,66.2,11.41,27.91
70,grindavik,90,IS,1542432600,93,63.84,51.8,38.03,-22.43
71,kirovo-chepetsk,56,RU,1542433610,95,58.54,31.49,12.55,50.03
72,avarua,75,CK,1542430800,88,-21.21,80.6,14.99,-159.78
73,atuona,92,PF,1542433611,100,-9.8,80.99,17.47,-139.03
74,kaihua,100,CN,1542433611,88,29.14,55.34,5.06,118.41
75,kodiak,1,US,1542430380,89,39.95,35.96,8.86,-94.76
76,nikolskoye,75,RU,1542430800,81,59.7,44.6,20.13,30.79
77,guarapari,20,BR,1542430800,88,-20.67,77.0,3.36,-40.5
78,port alfred,0,ZA,1542433613,84,-33.59,66.23,17.69,26.89
79,fernie,90,CA,1542430800,50,49.5,30.2,4.7,-115.06
80,ngunguru,64,NZ,1542433613,94,-35.62,63.13,7.18,174.5
81,busselton,64,AU,1542433615,83,-33.64,70.91,17.69,115.35
82,souillac,90,FR,1542432600,100,45.6,50.0,8.05,-0.6
83,mitsamiouli,40,KM,1542430800,66,-11.38,84.2,12.75,43.28
84,bandarbeyla,24,SO,1542433615,100,9.49,80.27,9.42,50.81
85,itoman,75,JP,1542430800,61,26.12,77.0,11.41,127.67
86,parabel,0,RU,1542433616,74,58.71,0.67,3.49,81.5
87,palimbang,75,PH,1542430800,55,14.9,89.6,9.17,120.78
88,hasaki,75,JP,1542430800,52,35.73,66.2,11.41,140.83
89,torbay,90,CA,1542432360,100,47.66,30.2,31.09,-52.73
90,beyneu,32,KZ,1542433617,95,45.32,26.68,7.85,55.19
91,tuatapere,48,NZ,1542433617,100,-46.13,48.73,12.77,167.69
92,kaitong,20,CN,1542433618,43,44.81,34.78,4.61,123.15
93,tiksi,32,RU,1542433618,77,71.64,-3.84,5.73,128.87
94,veraval,90,FR,1542430800,93,49.65,41.0,14.99,0.71
95,lagoa,75,PT,1542430800,88,37.14,62.6,10.29,-8.45
96,kavieng,64,PG,1542433620,100,-2.57,80.63,4.94,150.8
97,hualmay,48,PE,1542433620,97,-11.1,57.28,5.61,-77.61
98,pacific grove,75,US,1542433140,82,36.62,51.98,4.7,-121.92
99,los llanos de aridane,40,ES,1542432600,60,28.66,71.6,12.75,-17.92
100,naze,24,NG,1542433621,94,5.43,72.71,3.04,7.07
101,port hardy,40,CA,1542430800,100,50.7,41.0,2.24,-127.42
102,new norfolk,75,AU,1542430800,67,-42.78,57.2,19.46,147.06
103,ourem,0,PT,1542430800,87,39.64,57.2,12.75,-8.59
104,qasigiannguit,44,GL,1542430200,79,68.82,21.2,6.93,-51.19
105,gobabis,0,NA,1542433622,23,-22.45,75.37,8.86,18.97
106,tairua,88,NZ,1542433622,50,-37.02,69.02,4.83,175.85
107,mansa,0,IN,1542430800,37,23.43,84.2,3.36,72.66
108,huilong,92,CN,1542433623,100,28.89,48.1,4.05,110.18
109,wamba,64,CD,1542433624,94,2.14,70.55,2.93,27.99
110,santo tomas,44,PH,1542433624,75,17.4,82.93,4.94,121.77
111,isla mujeres,20,MX,1542429780,93,21.23,64.4,2.24,-86.73
112,zaraza,0,VE,1542433625,93,9.35,73.88,6.4,-65.33
113,lompoc,90,US,1542432900,86,34.64,59.0,2.04,-120.46
114,barranca,88,PE,1542433625,100,-10.75,61.82,13.44,-77.76
115,bethel,90,US,1542430380,95,60.79,32.0,5.82,-161.76
116,saint george,75,GR,1542430200,76,39.45,50.0,19.46,22.34
117,gaoual,12,GN,1542433464,84,11.75,67.0,3.6,-13.2
118,mongomo,48,GA,1542433628,97,1.63,69.92,2.71,11.31
119,tuktoyaktuk,40,CA,1542430800,76,69.44,-4.01,11.41,-133.03
120,lieksa,0,FI,1542433628,89,63.32,38.15,7.63,30.02
121,klaksvik,0,FO,1542432000,93,62.23,48.2,12.75,-6.59
122,hilo,90,US,1542430560,87,19.71,75.02,6.93,-155.08
123,ribeira grande,80,PT,1542433629,100,38.52,62.68,31.9,-28.7
124,nouakchott,92,MR,1542433629,99,18.08,69.97,11.1,-15.98
125,kapaa,90,US,1542430560,79,22.08,77.0,23.04,-159.32
126,tongliao,24,CN,1542433630,44,43.61,36.85,5.28,122.27
127,sciacca,20,IT,1542430500,87,37.51,53.6,2.24,13.08
128,isangel,12,VU,1542433630,100,-19.55,75.5,13.0,169.27
129,hobart,75,AU,1542430800,67,-42.88,57.2,19.46,147.33
130,nouadhibou,0,MR,1542430800,88,20.93,62.6,9.17,-17.03
131,mackay,5,CA,1542430800,84,53.65,3.2,2.48,-115.58
132,westport,20,IE,1542433536,93,53.8,53.77,19.37,-9.52
133,dawlatabad,68,AF,1542433633,100,36.41,48.1,4.61,64.91
134,foz do iguacu,0,BR,1542430800,83,-25.55,73.4,2.24,-54.59
135,dingle,0,PH,1542433633,63,11.0,87.47,12.66,122.67
136,port macquarie,40,AU,1542430800,64,-31.43,73.4,19.46,152.91
137,lazaro cardenas,56,MX,1542433634,64,28.39,37.79,2.71,-105.62
138,lata,0,IN,1542433634,67,30.78,51.47,1.92,78.62
139,shache,0,CN,1542433634,65,38.42,38.6,4.94,77.24
140,novikovo,44,UA,1542433635,100,45.05,38.69,5.17,34.56
141,sterling,40,US,1542431700,70,39.0,44.96,10.29,-77.4
142,tasiilaq,20,GL,1542430200,59,65.61,35.6,38.03,-37.64
143,silvan,40,TR,1542430200,87,38.14,44.6,5.82,41.01
144,puerto ayora,68,EC,1542433636,100,-0.74,72.8,11.54,-90.35
145,sao filipe,0,CV,1542433636,100,14.9,74.65,14.12,-24.5
146,praia da vitoria,40,PT,1542430800,93,38.73,53.6,29.1,-27.07
147,saint-philippe,90,CA,1542432060,86,45.36,30.2,10.29,-73.48
148,santa maria do para,8,BR,1542433637,88,-1.35,75.32,6.73,-47.58
149,leningradskiy,32,RU,1542433637,100,69.38,12.82,3.94,178.42
150,aqtobe,0,KZ,1542433638,67,50.28,12.32,3.94,57.21
151,alugan,92,PH,1542433638,100,12.22,77.17,6.06,125.48
152,trairi,92,BR,1542433638,100,-3.28,80.72,20.94,-39.27
153,alenquer,0,BR,1542433639,84,-1.95,77.84,6.4,-54.74
154,manokwari,32,ID,1542433639,100,-0.87,82.3,9.98,134.08
155,broome,0,GB,1542432000,93,52.47,46.4,2.24,1.45
156,fort nelson,20,CA,1542430800,83,58.81,-5.81,2.24,-122.69
157,buala,8,SB,1542433640,84,-8.15,84.77,4.72,159.59
158,salekhard,48,RU,1542433640,74,66.54,10.43,4.61,66.62
159,iqaluit,5,CA,1542430800,68,63.75,-14.81,10.29,-68.52
160,gondanglegi,24,ID,1542433641,82,-7.75,84.23,4.38,112.01
161,henties bay,56,NA,1542433641,91,-22.12,63.62,1.92,14.28
162,egvekinot,88,RU,1542433641,88,66.32,19.79,9.53,-179.17
163,wawa,0,NG,1542433642,70,9.9,62.9,3.6,4.41
164,vaini,0,IN,1542433642,52,15.34,86.66,7.96,74.49
165,college,90,US,1542430680,87,64.86,15.44,3.71,-147.8
166,thohoyandou,0,ZA,1542433643,44,-22.97,81.35,3.6,30.46
167,linjiang,48,CN,1542433643,53,41.81,31.58,4.16,126.91
168,ngaoundere,0,CM,1542430800,87,7.32,53.6,4.38,13.58
169,sheridan,1,US,1542432960,64,39.65,41.0,4.7,-105.03
170,maragogi,32,BR,1542433516,97,-9.01,73.79,5.28,-35.22
171,talnakh,76,RU,1542433644,79,69.49,1.75,19.82,88.39
172,noumea,0,NC,1542432600,57,-22.28,78.8,14.99,166.46
173,makakilo city,90,US,1542430620,81,21.35,77.0,4.7,-158.09
174,vagur,0,FO,1542433645,92,61.47,49.63,16.02,-6.81
175,sroda wielkopolska,0,PL,1542432600,100,52.23,28.4,6.93,17.28
176,baishishan,24,CN,1542433646,61,43.58,29.87,4.72,127.55
177,grand gaube,40,MU,1542430800,61,-20.01,80.6,9.17,57.66
178,ormara,0,PK,1542433647,77,25.21,81.22,4.16,64.64
179,dharampuri,0,IN,1542433647,52,22.17,82.52,4.61,75.35
180,huarmey,8,PE,1542433648,88,-10.07,55.34,3.83,-78.15
181,faanui,56,PF,1542433649,98,-16.48,82.79,8.97,-151.75
182,narsaq,88,GL,1542430200,68,60.91,30.2,1.36,-46.05
183,bilma,0,NE,1542433649,49,18.69,51.07,2.93,12.92
184,kano,8,NG,1542433650,51,11.99,61.42,5.39,8.53
185,portland,90,US,1542432180,96,45.52,51.98,3.83,-122.67
186,chulman,24,RU,1542433650,70,56.84,-3.61,2.71,124.9
187,vanimo,24,PG,1542433651,100,-2.67,84.55,2.82,141.3
188,harper,1,US,1542431700,82,30.3,41.0,9.64,-99.24
189,chokurdakh,44,RU,1542433651,65,70.62,-8.11,4.61,147.9
190,merauke,0,ID,1542433652,53,-8.49,92.6,15.79,140.4
191,tiznit,56,MA,1542433652,96,29.7,53.5,5.73,-9.73
192,san patricio,44,PY,1542433652,72,-26.98,71.77,4.94,-56.83
193,carnarvon,0,ZA,1542433653,31,-30.97,65.6,5.84,22.13
194,ashington,75,GB,1542432000,87,55.18,46.4,2.24,-1.57
195,scottsbluff,90,US,1542431220,92,41.87,37.94,8.05,-103.67
196,krnov,75,PL,1542430800,92,50.09,30.2,10.29,17.7
197,wheeling,90,US,1542430560,88,40.06,33.98,8.05,-80.72
198,lebu,75,ET,1542430800,77,8.96,59.0,11.41,38.73
199,mogadishu,75,SO,1542430800,74,2.04,82.4,3.36,45.34
200,petropavlovsk-kamchatskiy,24,RU,1542430800,58,53.05,30.2,2.24,158.65
201,esperance,20,TT,1542430800,94,10.24,77.0,6.73,-61.45
202,mwinilunga,20,ZM,1542433655,62,-11.73,73.34,3.6,24.43
203,sabana de torres,76,CO,1542433656,100,7.39,63.8,2.15,-73.5
204,mar del plata,88,AR,1542433656,69,-46.43,50.53,12.1,-67.52
205,carutapera,80,BR,1542433594,82,-1.2,80.32,9.64,-46.02
206,ciulnita,92,RO,1542433656,97,44.53,32.98,18.81,27.35
207,hamilton,90,BM,1542432420,94,32.3,73.4,13.87,-64.78
208,havre-saint-pierre,90,CA,1542430800,85,50.23,23.0,11.41,-63.6
209,acapulco,5,MX,1542430200,88,16.86,75.2,3.38,-99.88
210,tual,36,ID,1542433658,100,-5.67,86.62,3.6,132.75
211,ouango,24,CD,1542433658,99,4.31,73.43,3.15,22.55
212,bud,75,NO,1542432000,93,62.91,50.0,2.24,6.91
213,champerico,75,MX,1542429600,88,16.38,64.4,4.7,-93.6
214,katsuura,75,JP,1542430800,59,33.93,62.6,5.82,134.5
215,oussouye,8,SN,1542433659,97,12.49,78.52,17.36,-16.54
216,dikson,24,RU,1542433660,90,73.51,9.67,38.16,80.55
217,constitucion,0,MX,1542433660,64,23.99,36.8,6.17,-104.67
218,kysyl-syr,56,RU,1542433660,64,63.9,-14.19,2.71,122.77
219,stabat,40,ID,1542430800,66,3.76,87.8,10.29,98.46
220,semenivka,0,UA,1542433661,72,52.18,13.18,5.95,32.58
221,bonoua,20,CI,1542430800,88,5.27,80.6,1.12,-3.6
222,srednekolymsk,68,RU,1542433661,66,67.46,-14.64,2.93,153.71
223,nishihara,1,JP,1542432000,34,35.74,68.0,12.75,139.53
224,canton,90,US,1542431820,95,40.8,37.04,5.82,-81.38
225,benguela,0,AO,1542433662,100,-12.58,75.5,3.6,13.4
226,laibin,88,CN,1542433662,99,23.74,64.25,8.97,109.23
227,cockburn town,88,TC,1542433663,99,21.46,81.53,14.45,-71.14
228,kaseda,20,JP,1542430800,45,31.42,68.0,2.24,130.32
229,moindou,0,NC,1542432600,57,-21.69,78.8,14.99,165.68
230,truth or consequences,1,US,1542430380,35,33.13,39.02,4.7,-107.25
231,thompson,75,CA,1542430800,83,55.74,-4.01,6.93,-97.86
232,arraial do cabo,92,BR,1542433664,96,-22.97,72.35,11.43,-42.02
233,kendari,24,ID,1542433664,85,-3.99,86.48,3.15,122.52
234,morondava,8,MG,1542433665,73,-20.3,84.77,4.83,44.28
235,juybar,0,IR,1542430800,87,36.64,57.2,2.24,52.91
236,arman,75,RU,1542430800,92,59.7,8.6,2.24,150.17
237,hambantota,12,LK,1542433666,100,6.12,83.15,1.48,81.12
238,beringovskiy,76,RU,1542433666,100,63.05,26.05,26.42,179.32
239,upernavik,80,GL,1542433666,100,72.79,21.59,13.22,-56.15
240,tura,0,IN,1542433666,68,25.52,77.66,4.83,90.21
241,ancud,92,CL,1542433667,97,-41.87,47.15,4.72,-73.83
242,flagstaff,1,US,1542432900,26,35.2,46.4,8.05,-111.65
243,tilichiki,24,RU,1542433667,92,60.47,-21.34,3.15,166.1
244,port elizabeth,1,US,1542430560,92,39.31,42.98,9.64,-74.98
245,ciudad bolivar,64,VE,1542433668,96,8.12,74.65,9.31,-63.55
246,west plains,1,US,1542430380,67,36.73,46.04,3.36,-91.85
247,vila velha,40,BR,1542430800,78,-3.71,80.6,12.75,-38.6
248,prince rupert,1,CA,1542430800,100,54.32,37.4,5.82,-130.32
249,salinas,75,US,1542433140,82,36.67,51.98,4.7,-121.66
250,chapais,90,CA,1542432360,92,49.78,19.4,6.93,-74.86
251,fort dodge,90,US,1542432900,92,42.5,32.0,10.29,-94.17
252,wanning,0,AT,1542430200,68,48.64,33.8,11.41,13.53
253,caravelas,88,BR,1542433597,100,-17.73,77.98,14.23,-39.27
254,pemba,64,MZ,1542433557,100,-12.97,78.43,4.72,40.52
255,srandakan,24,ID,1542433670,71,-7.94,87.29,6.29,110.25
256,okhtyrka,36,UA,1542433671,65,50.31,23.62,10.87,34.89
257,serenje,24,ZM,1542433671,55,-13.23,75.59,12.33,30.22
258,charters towers,0,AU,1542433671,44,-20.07,87.29,10.76,146.27
259,deming,1,US,1542431700,32,32.27,37.04,5.82,-107.76
260,larreynaga,20,NI,1542433672,71,12.68,76.67,6.73,-86.57
261,bathsheba,40,BB,1542430800,83,13.22,80.6,18.34,-59.52
262,aklavik,40,CA,1542430800,69,68.22,-11.21,5.82,-135.01
263,adre,12,TD,1542433673,30,13.47,65.92,12.55,22.2
264,nizhniy kuranakh,80,RU,1542433673,75,58.84,-4.38,3.27,125.49
265,sonoita,1,US,1542430680,34,31.68,51.98,6.93,-110.66
266,svetlaya,0,RU,1542433674,100,46.54,31.04,16.69,138.33
267,binzhou,68,CN,1542433674,42,37.38,48.32,5.17,117.96
268,mount gambier,0,AU,1542433674,55,-37.83,68.17,6.4,140.78
269,makokou,88,GA,1542433675,100,0.56,69.29,2.82,12.85
270,howard springs,20,AU,1542430800,52,-12.5,91.4,9.17,131.05
271,diapaga,12,BF,1542433675,55,12.07,61.15,2.71,1.79
272,stolbovaya,0,RU,1542430800,62,55.26,24.8,8.95,37.49
273,kerman,20,IR,1542430800,54,30.29,59.0,4.7,57.06
274,ust-uda,48,RU,1542433676,84,54.17,8.45,11.77,103.03
275,wageningen,0,NL,1542432300,99,51.98,39.2,4.7,5.66
276,solnechnyy,80,RU,1542433677,60,50.72,20.2,8.97,136.64
277,sharan,24,AF,1542433677,30,33.15,55.07,4.38,68.78
278,whyalla,0,AU,1542430800,36,-33.04,75.2,21.92,137.58
279,marsa matruh,0,EG,1542433678,84,31.35,54.22,8.52,27.25
280,atar,12,MR,1542433678,78,20.52,51.43,2.59,-13.05
281,hollins,75,US,1542431700,67,37.35,42.08,5.82,-79.95
282,hachinohe,40,JP,1542430320,75,40.47,50.0,17.22,141.48
283,dafeng,24,CN,1542433679,70,33.2,57.77,9.86,120.46
284,mugur-aksy,0,RU,1542433679,77,50.38,5.3,2.71,90.44
285,limon,1,US,1542430500,63,39.26,35.06,17.22,-103.69
286,kihurio,92,TZ,1542433680,94,-4.47,70.15,2.71,38.07
287,kisangani,64,CD,1542433680,92,0.52,72.89,0.81,25.21
288,cidreira,0,BR,1542433680,78,-30.17,68.3,19.37,-50.22
289,havoysund,75,NO,1542430200,93,71.0,44.6,51.67,24.66
290,chara,75,GR,1542432000,71,39.42,51.8,19.46,22.43
291,qaqortoq,80,GL,1542430200,68,60.72,30.2,27.2,-46.03
292,luganville,0,VU,1542433681,100,-15.51,80.99,7.96,167.18
293,namibe,76,AO,1542433682,100,-15.19,74.33,13.44,12.15
294,raudeberg,64,NO,1542432000,87,61.99,50.0,6.93,5.14
295,chota,64,EC,1542433682,100,0.47,48.82,1.81,-78.07
296,eucaliptus,68,BO,1542433683,96,-17.6,43.15,4.27,-67.51
297,kuryk,12,KZ,1542433683,76,43.18,40.49,15.57,51.68
298,lockport,5,CA,1542430800,70,50.09,1.4,8.05,-96.94
299,balad,8,ID,1542433684,95,-6.76,87.92,8.97,108.42
300,sal rei,75,CV,1542430800,68,16.18,71.6,4.7,-22.92
301,sangar,12,RU,1542433684,61,63.92,-13.42,2.71,127.47
302,jardim,20,BR,1542433685,95,-21.48,75.5,4.94,-56.15
303,bow island,20,CA,1542430800,84,49.87,1.4,3.36,-111.38
304,sabha,0,LY,1542433685,37,27.03,54.4,11.21,14.43
305,nanortalik,80,GL,1542433686,93,60.14,32.08,34.14,-45.24
306,madras,90,US,1542431700,75,44.63,44.96,5.82,-121.13
307,along,92,IN,1542433687,98,28.17,54.89,1.92,94.8
308,hanzhong,92,CN,1542433687,100,33.08,36.53,3.15,107.03
309,kieta,64,PG,1542433687,100,-6.22,78.74,3.15,155.63
310,thaba nchu,0,ZA,1542430800,32,-29.2,69.8,2.24,26.83
311,bayir,75,TR,1542430200,81,37.27,51.8,8.05,28.22
312,vostok,76,RU,1542433688,69,46.45,19.12,5.39,135.83
313,cap-aux-meules,88,CA,1542433548,100,47.38,36.62,30.0,-61.86
314,suruc,0,TR,1542430200,65,36.98,41.0,13.87,38.42
315,uribia,36,CO,1542433689,77,11.71,80.9,14.45,-72.27
316,ilulissat,44,GL,1542430200,79,69.22,21.2,6.93,-51.1
317,de aar,0,ZA,1542433690,23,-30.65,73.07,6.29,24.01
318,nemuro,40,JP,1542430800,70,43.32,42.8,3.36,145.57
319,naryan-mar,92,RU,1542433690,94,67.67,35.09,5.5,53.09
320,hovd,75,NO,1542432000,100,63.83,46.4,2.24,10.7
321,pochutla,5,MX,1542429600,69,15.74,77.0,8.05,-96.47
322,te anau,92,NZ,1542433691,100,-45.41,50.3,3.38,167.72
323,qiongshan,40,CN,1542430800,70,20.01,84.2,8.95,110.35
324,toksovo,75,RU,1542430800,81,60.16,44.6,20.13,30.53
325,maturin,76,VE,1542433692,91,9.75,75.86,4.5,-63.18
326,kudahuvadhoo,76,MV,1542433692,100,2.67,78.88,8.86,72.89
327,nortelandia,32,BR,1542433693,96,-14.45,72.4,2.71,-56.8
328,arlit,0,NE,1542433693,41,18.74,55.34,1.7,7.39
329,lander,90,US,1542431700,92,42.83,28.94,6.93,-108.73
330,san rafael,0,AR,1542433694,23,-34.61,65.38,19.82,-68.33
331,timbiqui,68,CO,1542433694,100,2.77,73.57,2.48,-77.67
332,saldanha,24,PT,1542433695,86,41.42,38.06,3.15,-6.55
333,rosa zarate,92,EC,1542433696,97,0.33,72.85,2.93,-79.47
334,norman wells,40,CA,1542430800,74,65.28,-23.81,2.37,-126.83
335,fairbanks,90,US,1542430680,87,64.84,15.44,3.71,-147.72
336,novoagansk,64,RU,1542433697,77,61.94,5.3,5.17,76.66
337,purpe,92,RU,1542433697,81,64.48,8.45,11.99,76.69
338,northam,75,GB,1542432000,93,51.04,50.0,5.82,-4.21
339,codrington,88,AU,1542433699,100,-28.95,66.73,3.38,153.24
340,tecoanapa,5,MX,1542430200,88,16.99,75.2,2.59,-99.26
341,labuhan,32,ID,1542433699,100,-2.54,83.15,2.93,115.51
342,barao de melgaco,75,BR,1542430800,88,-16.19,77.0,3.36,-55.97
343,seoul,0,KR,1542430800,31,37.57,51.8,6.93,126.98
344,wajir,68,KE,1542433700,92,1.75,75.41,6.96,40.07
345,siilinjarvi,0,FI,1542432000,86,63.08,41.0,16.11,27.67
346,kloulklubed,90,PW,1542430200,79,7.04,84.2,8.05,134.26
347,benavente,20,PT,1542430800,93,38.98,57.2,6.93,-8.82
348,minab,40,IR,1542430800,73,27.15,77.0,4.7,57.07
349,clyde river,90,CA,1542430800,75,70.47,-13.01,12.75,-68.59
350,slawi,36,ID,1542433702,84,-6.97,82.57,2.82,109.14
351,laguna,88,MX,1542433703,69,27.52,58.94,2.26,-110.01
352,itarema,76,BR,1542433703,89,-2.92,76.27,11.43,-39.92
353,tshikapa,88,CD,1542433703,98,-6.42,71.81,2.93,20.79
354,bowen,0,AU,1542430800,43,-20.01,87.8,13.87,148.25
355,kirakira,8,SB,1542433704,100,-10.46,82.75,10.76,161.92
356,san cristobal,75,EC,1542430800,93,-0.39,53.6,2.24,-78.55
357,ambanja,40,MG,1542430800,74,-13.68,84.2,2.82,48.45
358,provideniya,92,RU,1542433706,100,64.42,34.15,2.26,-173.23
359,evanston,90,US,1542433320,72,42.04,36.14,5.82,-87.69
360,tsalka,8,GE,1542433707,93,41.6,33.52,3.49,44.09
361,kalmunai,68,LK,1542433707,92,7.42,82.48,1.25,81.82
362,ankara,0,TR,1542430200,92,39.92,30.2,3.36,32.85
363,bin qirdan,92,TN,1542433708,85,33.14,63.85,4.61,11.22
364,guasdualito,68,VE,1542433708,90,7.24,75.59,6.96,-70.73
365,revelstoke,1,CA,1542430800,92,50.99,32.0,5.82,-118.19
366,nadvoitsy,0,RU,1542433709,86,63.89,39.86,9.42,34.27
367,det udom,75,TH,1542430800,66,14.9,87.8,2.24,105.08
368,dalvik,0,SE,1542432000,93,57.79,39.2,4.7,14.13
369,ulaangom,0,MN,1542433710,72,49.98,9.71,3.38,92.07
370,abha,40,SA,1542430800,58,18.22,62.6,1.92,42.5
371,thinadhoo,56,MV,1542433710,98,0.53,83.83,11.43,72.93
372,yar-sale,80,RU,1542433711,97,66.83,23.12,15.68,70.83
373,diebougou,32,BF,1542433711,64,10.97,70.33,2.59,-3.25
374,owosso,90,US,1542431700,78,43.0,36.5,9.17,-84.18
375,arcata,1,US,1542432900,93,40.87,44.6,9.17,-124.08
376,tiarei,75,PF,1542432600,78,-17.53,80.6,4.7,-149.33
377,ca mau,20,VN,1542433712,99,9.18,84.86,5.39,105.15
378,farmington,1,US,1542430380,48,36.73,30.92,2.59,-108.21
379,lusambo,80,CD,1542433713,94,-4.97,72.89,2.93,23.44
380,pisco,48,PE,1542430800,87,-13.71,60.8,3.36,-76.2
381,iquique,20,CL,1542430800,77,-20.22,64.4,3.38,-70.14
382,male,0,UA,1542433427,66,50.74,20.42,10.76,33.7
383,kosh-agach,0,RU,1542433715,56,49.99,6.07,1.03,88.66
384,churapcha,80,RU,1542433715,66,62.0,-0.82,4.16,132.43
385,xining,24,CN,1542433715,54,36.62,27.71,2.59,101.77
386,dandong,64,CN,1542433716,45,40.12,41.98,3.94,124.37
387,surgut,90,RU,1542430800,92,61.25,12.2,6.71,73.4
388,geraldton,75,CA,1542430800,78,49.72,10.4,6.93,-86.95
389,valparaiso,90,US,1542432900,81,41.47,36.14,8.05,-87.06
390,morant bay,20,JM,1542430800,69,17.88,80.6,3.36,-76.41
391,mersin,0,TR,1542430200,86,36.81,39.2,3.36,34.63
392,sao jose da coroa grande,32,BR,1542433717,97,-8.9,73.79,5.28,-35.15
393,horta,90,ES,1542432600,82,41.43,59.0,1.12,2.16
394,sumbe,20,AO,1542433718,100,-11.2,75.32,2.04,13.84
395,kaoma,36,ZM,1542433718,31,-14.8,81.13,12.33,24.8
396,bonavista,92,CA,1542433719,100,48.65,32.39,28.66,-53.11
397,ilo,64,PE,1542433719,100,-17.65,56.51,2.71,-71.34
398,topchikha,88,RU,1542433719,93,52.82,19.88,7.96,83.12
399,seversk,36,RU,1542433719,89,56.6,4.27,3.71,84.88
400,concordia,0,AR,1542433720,72,-31.4,68.39,13.22,-58.02
401,severo-kurilsk,88,RU,1542433720,100,50.68,40.0,14.0,156.12
402,coihaique,0,CL,1542430800,81,-45.58,42.8,6.93,-72.07
403,the valley,20,AI,1542430800,74,18.22,80.6,11.41,-63.06
404,leshukonskoye,92,RU,1542433721,98,64.9,40.04,7.29,45.76
405,kodinsk,56,RU,1542433721,54,58.6,6.97,5.61,99.18
406,gayeri,12,BF,1542433722,57,12.65,61.55,2.82,0.49
407,elesbao veloso,44,BR,1542433722,48,-6.2,82.93,11.99,-42.14
408,ixtapa,75,MX,1542429900,77,20.71,69.8,4.7,-105.21
409,eenhana,20,NA,1542430800,17,-17.48,77.0,5.82,16.34
410,iracoubo,92,GF,1542433723,97,5.48,75.82,4.38,-53.21
411,iskateley,92,RU,1542433723,90,67.68,33.65,3.83,53.15
412,axim,0,GH,1542433723,100,4.87,81.67,8.19,-2.24
413,vizinga,92,RU,1542433724,99,61.08,37.88,7.4,50.08
414,daru,92,SL,1542433724,100,7.99,71.77,2.26,-10.85
415,lavrentiya,92,RU,1542433724,100,65.58,35.32,14.79,-170.99
416,alpatovo,92,RU,1542433724,100,43.7,42.7,5.06,45.24
417,verkhnevilyuysk,64,RU,1542433725,67,63.45,-0.78,3.38,120.31
418,san juan,75,PH,1542430800,52,14.6,89.6,8.05,121.03
419,ambikapur,0,IN,1542433596,53,23.12,76.72,4.5,83.2
420,deniliquin,0,AU,1542433726,25,-35.53,77.48,13.0,144.96
421,borazjan,0,IR,1542430500,73,29.27,71.6,6.93,51.21
422,omboue,92,GA,1542433727,100,-1.57,78.52,7.4,9.26
423,harnai,20,PK,1542433727,50,30.1,68.03,3.71,67.94
424,shillong,20,IN,1542430800,94,25.58,75.2,6.06,91.88
425,laguna de perlas,88,NI,1542433728,100,12.34,80.99,18.59,-83.67
426,aksay,92,RU,1542433728,96,47.27,32.35,13.0,39.86
427,verkhnyaya inta,92,RU,1542433728,97,65.99,34.1,5.17,60.32
428,sun valley,75,US,1542430260,59,43.7,37.4,9.17,-114.35
429,gbadolite,64,CD,1542433729,99,4.28,71.54,3.71,21.0
430,acajutla,36,SV,1542433729,54,13.59,81.17,9.98,-89.83
431,mikuni,20,JP,1542430800,62,36.22,59.0,13.87,136.15
432,curaca,0,BR,1542433730,65,-8.99,77.48,14.67,-39.91
433,buta,76,CD,1542433730,89,2.79,74.83,2.93,24.73
434,victor harbor,0,AU,1542430800,19,-35.55,75.2,12.75,138.62
435,vikhorevka,40,RU,1542430800,58,56.12,-4.01,11.18,101.17
436,cavalcante,80,BR,1542433732,99,-13.79,67.22,2.59,-47.46
437,ambon,90,FR,1542432600,100,47.55,46.4,13.87,-2.56
438,itaituba,0,BR,1542433733,84,-4.26,78.74,3.71,-55.99
439,dabola,24,GN,1542433733,95,10.74,64.03,2.71,-11.11
440,chiscani,92,RO,1542430800,99,45.18,32.0,13.87,27.93
441,tommot,80,RU,1542433734,73,58.97,-3.97,2.93,126.27
442,chulym,76,RU,1542433734,91,55.09,11.06,8.52,80.97
443,oro valley,1,US,1542430680,34,32.39,51.98,8.05,-110.97
444,zhigansk,0,RU,1542433735,52,66.77,-17.83,3.38,123.37
445,shimoda,40,JP,1542430800,48,34.7,66.2,12.75,138.93
446,paso de los toros,0,UY,1542433735,72,-32.81,62.09,19.04,-56.52
447,rostovka,75,RU,1542430800,100,55.02,21.2,8.95,73.58
448,cedral,36,MX,1542433736,77,23.82,34.28,3.38,-100.72
449,jalu,0,LY,1542433736,74,29.03,51.25,6.96,21.55
450,iraquara,36,BR,1542433736,75,-12.24,69.74,8.63,-41.62
451,batemans bay,92,AU,1542433618,100,-35.71,57.59,5.95,150.18
452,juneau,90,US,1542430560,100,58.3,37.04,3.6,-134.42
453,alexandria,1,US,1542430500,88,31.31,44.06,3.71,-92.44
454,alofi,80,NU,1542430800,78,-19.06,78.8,6.93,-169.92
455,katherine,20,AU,1542430800,32,-14.47,95.0,5.82,132.26
456,valley,0,GB,1542430200,93,53.28,48.2,9.17,-4.56
457,lamu,80,ID,1542433738,97,0.57,79.28,2.71,122.3
458,saskylakh,68,RU,1542433738,58,71.97,-20.08,6.4,114.09
459,qitaihe,0,CN,1542433739,69,45.77,27.53,6.29,131.01
460,paamiut,92,GL,1542433739,100,61.99,33.74,38.83,-49.67
461,mabaruma,100,GY,1542433739,98,8.2,77.84,5.73,-59.78
462,wadi maliz,40,TN,1542430800,93,36.47,51.8,1.7,8.55
463,pitimbu,48,BR,1542433740,96,-7.47,78.52,8.52,-34.81
464,opuwo,0,NA,1542433740,15,-18.06,76.13,8.52,13.84
465,grand-lahou,12,CI,1542433742,91,5.24,76.85,4.83,-5.0
466,aitape,48,PG,1542433743,100,-3.15,80.5,3.71,142.36
467,wakkanai,75,JP,1542430800,59,45.41,33.8,24.16,141.67
468,corinto,92,BR,1542433744,96,-18.36,68.48,4.05,-44.46
469,hassan,0,IN,1542433744,62,13.01,79.6,9.64,76.1
470,crestline,75,US,1542431760,100,40.79,37.04,9.19,-82.74
471,taoudenni,0,ML,1542433745,65,22.68,52.01,5.39,-3.98
472,gewane,100,ET,1542433745,70,10.16,74.42,3.38,40.66
473,vejprty,0,CZ,1542430800,92,50.49,28.4,5.82,13.03
474,mananjary,0,MG,1542433746,66,-19.16,73.03,5.17,46.8
475,chicama,40,PE,1542430800,82,-7.84,66.2,10.29,-79.15
476,goderich,92,CA,1542433747,91,43.74,38.24,16.24,-81.71
477,dillon,90,US,1542430380,80,45.22,17.96,16.11,-112.64
478,brae,0,GB,1542432000,87,60.4,50.0,6.93,-1.35
479,tabou,92,CI,1542433748,100,4.42,79.37,4.61,-7.36
480,zakharovo,44,RU,1542433748,60,54.37,10.97,3.71,39.28
481,yagodnoye,44,RU,1542433749,89,62.52,-8.79,1.92,149.63
482,adrasmon,20,TJ,1542430800,60,40.65,42.8,17.9,69.99
483,siddipet,12,IN,1542433749,62,18.1,85.63,7.63,78.85
484,avera,1,US,1542433260,96,33.19,48.02,5.28,-82.53
485,alekseyevsk,44,RU,1542433750,36,57.84,3.23,5.5,108.35
486,port-cartier,90,CA,1542431340,85,50.03,23.0,8.05,-66.88
487,coquimbo,0,CL,1542430800,93,-29.95,55.4,5.82,-71.34
488,santa barbara,1,US,1542433140,76,34.42,57.92,5.17,-119.7
489,xiuyan,44,CN,1542433751,38,40.29,43.87,6.06,123.27
490,agadez,0,NE,1542430800,39,16.97,64.4,6.93,7.99
491,oistins,40,BB,1542430800,83,13.07,80.6,18.34,-59.53
492,kitgum,32,UG,1542433752,97,3.3,67.94,3.27,32.88
493,karratha,8,AU,1542433753,11,-20.74,110.02,6.73,116.85
494,pitiquito,0,MX,1542433753,75,30.68,42.7,1.92,-112.05
495,jijiga,8,ET,1542433753,48,9.35,69.65,2.59,42.8
496,kruisfontein,64,ZA,1542433753,82,-34.0,63.58,19.48,24.73
497,kurush,8,RU,1542433754,89,41.28,35.68,1.92,47.83
498,bansi,0,IN,1542433754,60,27.18,75.28,7.63,82.93
499,pombia,75,IT,1542432000,70,45.65,46.4,2.24,8.63
500,saint anthony,90,US,1542432840,92,43.97,33.08,6.93,-111.68
501,totskoye,0,RU,1542433755,78,52.53,13.13,4.61,52.75
502,half moon bay,90,US,1542432900,57,37.46,53.96,3.04,-122.43
503,baykit,56,RU,1542433756,78,61.68,-4.83,3.94,96.39
504,alice springs,90,AU,1542430800,24,-23.7,80.6,12.75,133.88
505,cordoba,56,CO,1542433756,100,5.59,51.83,2.15,-73.79
506,tefe,12,BR,1542433757,96,-3.35,77.53,2.59,-64.71
507,saint-pierre,0,FR,1542432600,80,48.95,32.0,8.05,4.24
508,port blair,44,IN,1542433758,94,11.67,85.85,11.32,92.75
509,paragominas,0,BR,1542433758,95,-3.0,73.57,3.94,-47.35
510,faya,40,SA,1542430800,58,18.39,62.6,3.38,42.45
511,kavaratti,88,IN,1542433759,100,10.57,80.81,13.78,72.64
512,antofagasta,40,CL,1542430800,82,-23.65,59.0,1.12,-70.4
513,marrakesh,40,MA,1542430800,87,31.63,53.6,3.36,-7.99
514,manta,80,RO,1542433760,95,45.1,27.85,2.37,24.1
515,yarmouth,0,GB,1542430200,100,50.71,46.4,11.41,-1.5
516,luanda,75,AO,1542430800,88,-8.83,77.0,2.15,13.24
517,dhidhdhoo,24,MV,1542433762,100,6.88,79.82,11.43,73.1
518,nsawam,0,GH,1542433762,95,5.81,68.8,2.71,-0.35
519,porto seguro,20,BR,1542430800,78,-16.44,78.8,11.41,-39.06
520,agutaya,0,PH,1542433764,100,11.15,83.2,17.13,120.94
521,mezen,92,RU,1542433764,99,65.85,39.41,6.85,44.24
522,port harcourt,44,NG,1542433764,94,4.77,72.71,2.93,7.02
523,jacareacanga,36,BR,1542433765,93,-6.22,76.18,2.93,-57.76
524,san jose,0,PH,1542433616,61,15.79,84.82,4.05,120.99
525,uvat,76,RU,1542433766,87,59.14,20.47,3.71,68.9
526,mahebourg,40,MU,1542430800,61,-20.41,80.6,9.17,57.7
527,sinnamary,80,GF,1542433766,100,5.38,76.58,7.74,-52.96
528,vrangel,0,RU,1542433766,100,42.73,38.42,13.67,133.08
529,san pedro,0,AR,1542433768,65,-33.68,69.88,16.69,-59.66
530,urengoy,68,RU,1542433769,87,65.96,10.61,15.46,78.37
531,lima,36,PE,1542433770,80,-12.06,54.13,2.71,-77.04
532,port keats,0,AU,1542433770,83,-14.25,90.26,7.18,129.55
533,muros,0,ES,1542432600,81,42.77,53.6,11.41,-9.06
534,mvangue,88,CM,1542433770,98,2.97,69.83,2.71,11.5
535,road town,1,VG,1542430380,87,18.42,78.98,8.05,-64.62
536,beipiao,44,CN,1542433771,37,41.8,40.49,6.96,120.76
537,rudnogorsk,56,RU,1542433771,87,57.27,3.77,8.63,103.75
538,onega,88,RU,1542433771,92,63.91,42.38,15.57,38.09
539,marzuq,0,YE,1542433772,41,14.4,69.92,3.49,46.47
540,sayyan,0,YE,1542433772,31,15.17,63.71,2.59,44.32
541,dauphin,1,CA,1542430800,91,51.15,-5.81,9.17,-100.04
542,scarborough,56,GB,1542430200,93,54.28,48.2,5.82,-0.41
543,viesite,80,LV,1542433773,97,56.35,31.58,5.84,25.56
544,varzob,64,TJ,1542430800,30,38.78,55.4,6.71,68.82
545,zamora,0,ES,1542432600,93,41.51,41.0,4.16,-5.74
546,puerto del rosario,32,ES,1542432600,82,28.5,66.2,6.93,-13.86
547,tucuman,36,PE,1542433774,66,-17.17,48.41,2.26,-70.89
548,north bend,90,US,1542431760,100,43.41,46.4,5.73,-124.22
549,bad lauterberg,0,DE,1542433775,80,51.63,27.26,6.96,10.47
550,asosa,8,ET,1542433775,24,10.07,75.41,3.94,34.53
551,kyzyl,12,RU,1542433776,83,51.72,9.58,4.16,94.43
552,matay,0,EG,1542433776,83,28.42,55.93,2.82,30.79
